[
	{
		"_id": "60d21b4c67d0d8992e610c87",
		"name": "Sujan Shrestha",
		"companyId": "60d21b4c67d0d8992e610c87",
		"address": "Kathmandu",
		"phone": "9812335900",
		"location": [27.6150874, 85.3277975]
	},
	{
		"_id": "667d02da029f8753da18b7d8",
		"name": "Anjali Gurung",
		"companyId": "60d21b4667d0d8992e610c85",
		"address": "123 Main St, Kathmandu",
		"phone": "+9779812345670",
		"location": [27.725171104020266, 85.29068376576382]
	},
	{
		"_id": "667d03fd22d0e6a2c51826ce",
		"name": "Rajesh Khadka",
		"companyId": "60d21b4667d0d8992e610c85",
		"address": "456 Maple Ave, Kathmandu",
		"phone": "+9779812345671",
		"location": [27.685960229871625, 85.31213487710929]
	},
	{
		"_id": "667d03fd22d0e6a2c51826cc",
		"name": "Sita Rai",
		"companyId": "60d21b4667d0d8992e610c85",
		"address": "789 Oak Dr, Kathmandu",
		"phone": "+9779812345672",
		"location": [27.659051599534987, 85.35299663565301]
	},
	{
		"_id": "667d03fd22d0e6a2c51826d0",
		"name": "Kumar Bhandari",
		"companyId": "60d21b4667d0d8992e610c85",
		"address": "101 Pine St, Kathmandu",
		"phone": "+9779812345673",
		"location": [27.64764763894829, 85.30254362176849]
	},
	{
		"_id": "60d21b4667d0d8992e610c95",
		"name": "Asha Thapa",
		"companyId": "60d21b4667d0d8992e610c85",
		"address": "202 Cedar Ln, Kathmandu",
		"phone": "+9779812345674",
		"location": [27.7176, 85.3244]
	},
	{
		"_id": "60d21b4967d0d8992e610c86",
		"name": "Prakash Tamang",
		"companyId": "60d21b4967d0d8992e610c86",
		"address": "303 Birch St, Lalitpur",
		"phone": "+9779812345675",
		"location": [27.6667, 85.3333]
	},
	{
		"_id": "60d21b4967d0d8992e610c91",
		"name": "Maya Lama",
		"companyId": "60d21b4967d0d8992e610c86",
		"address": "404 Elm St, Lalitpur",
		"phone": "+9779812345676",
		"location": [27.6668, 85.3334]
	},
	{
		"_id": "60d21b4967d0d8992e610c92",
		"name": "Bikash Sherpa",
		"companyId": "60d21b4967d0d8992e610c86",
		"address": "505 Spruce St, Lalitpur",
		"phone": "+9779812345677",
		"location": [27.6669, 85.3335]
	},
	{
		"_id": "60d21b4967d0d8992e610c93",
		"name": "Rita Shrestha",
		"companyId": "60d21b4967d0d8992e610c86",
		"address": "606 Fir St, Lalitpur",
		"phone": "+9779812345678",
		"location": [27.6670, 85.3336]
	},
	{
		"_id": "60d21b4967d0d8992e610c94",
		"name": "Nabin Magar",
		"companyId": "60d21b4967d0d8992e610c86",
		"address": "707 Hemlock St, Lalitpur",
		"phone": "+9779812345679",
		"location": [27.6671, 85.3337]
	},
	{
		"_id": "60d21b4c67d0d8992e611c87",
		"name": "Sunita Bhujel",
		"companyId": "60d21b4c67d0d8992e610c87",
		"address": "808 Maple St, Bhaktapur",
		"phone": "+9779812345680",
		"location": [27.6710, 85.4298]
	},
	{
		"_id": "60d21b4c67d0d8992e612c87",
		"name": "Dinesh Karki",
		"companyId": "60d21b4c67d0d8992e610c87",
		"address": "909 Elm St, Bhaktapur",
		"phone": "+9779812345681",
		"location": [27.6711, 85.4299]
	},
	{
		"_id": "60d21b4c67d0d8992e613c87",
		"name": "Manisha Adhikari",
		"companyId": "60d21b4c67d0d8992e610c87",
		"address": "1010 Cedar St, Bhaktapur",
		"phone": "+9779812345682",
		"location": [27.6712, 85.4300]
	},
	{
		"_id": "60d21b4c67d0d8992e614c87",
		"name": "Kamal Shrestha",
		"companyId": "60d21b4c67d0d8992e610c87",
		"address": "1111 Pine St, Bhaktapur",
		"phone": "+9779812345683",
		"location": [27.6713, 85.4301]
	},
	{
		"_id": "60d21b4c67d0d8992e615c87",
		"name": "Sarita Acharya",
		"companyId": "60d21b4c67d0d8992e610c87",
		"address": "1212 Spruce St, Bhaktapur",
		"phone": "+9779812345684",
		"location": [27.6714, 85.4302]
	},
	{
		"_id": "60d21b4667d0d8992f610c85",
		"name": "Amit Rai",
		"companyId": "60d21b4667d0d8992e610c85",
		"address": "1313 Fir St, Kathmandu",
		"phone": "+9779812345685",
		"location": [27.7177, 85.3245]
	},
	{
		"_id": "60d21b4667d0d8992f610c11",
		"name": "Gita Maharjan",
		"companyId": "60d21b4667d0d8992e610c85",
		"address": "1414 Maple St, Kathmandu",
		"phone": "+9779812345686",
		"location": [27.7178, 85.3246]
	},
	{
		"_id": "64a2f99889a0b76e7232e8f1",
		"name": "Krishna Bajracharya",
		"companyId": "60d21b4667d0d8992e610c85",
		"address": "1515 Oak St, Kathmandu",
		"phone": "+9779812345687",
		"location": [27.7179, 85.3247]
	},
	{
		"_id": "64a2f99889a0b76e7232e8f2",
		"name": "Shanti Tamang",
		"companyId": "60d21b4967d0d8992e610c86",
		"address": "1616 Birch St, Lalitpur",
		"phone": "+9779812345688",
		"location": [27.6672, 85.3338]
	},
	{
		"_id": "64a2f99889a0b76e7232e8f3",
		"name": "Tina Perez",
		"companyId": "60d21b4c67d0d8992e610c87",
		"address": "1717 Elm St, Bhaktapur",
		"phone": "+9779812345689",
		"location": [27.6715, 85.4303]
	}
]